[
  {
    "type": "club",
    "name": "Marais Running Club",
    "city": "Paris",
    "address": "Marais, Paris",
    "website": "https://www.on.com/fr-fr/stories/who-are-the-marais-running-club-movement-mrc-paris-france",
    "desc": "Running social & performance",
    "lat": 48.857,
    "lng": 2.357,
    "image": "images/clubs/marais_running.png"
  },
  {
    "type": "club",
    "name": "Circle Run Club",
    "city": "Paris",
    "address": "10e arrondissement, Paris",
    "website": "https://circlesportswear.com/en/pages/circle-run-club",
    "desc": "Running urbain & dynamique",
    "lat": 48.871,
    "lng": 2.356,
    "image": "images/clubs/circle_run.png"
  },
  {
    "type": "club",
    "name": "Pretend Parisiens",
    "city": "Paris",
    "address": "Paris",
    "website": "https://www.instagram.com/pretendparisiens/",
    "desc": "Running social & convivial",
    "lat": 48.864,
    "lng": 2.349,
    "image": "images/clubs/pretend_parisiens.png"
  },
  {
    "type": "club",
    "name": "Harbat Running Club",
    "city": "Paris",
    "address": "Paris",
    "website": "https://www.instagram.com/harbatrunninglab/",
    "desc": "Running social & communautaire",
    "lat": 48.860,
    "lng": 2.352,
    "image": "images/clubs/harbat.png"
  },
  {
    "type": "club",
    "name": "Let's Run Paris",
    "city": "Paris",
    "address": "Paris",
    "website": "https://letsrunparis.wordpress.com/",
    "desc": "Running international & marathon",
    "lat": 48.856,
    "lng": 2.354,
    "image": "images/clubs/lets_run_paris.png"
  },
  {
    "type": "club",
    "name": "Adidas Runners Paris",
    "city": "Paris",
    "address": "Paris",
    "website": "https://www.adidas.com/fr/adidasrunners",
    "desc": "Running urbain & entraînements",
    "lat": 48.857,
    "lng": 2.350,
    "image": "images/clubs/adidas_runners.png"
  },
  {
    "type": "club",
    "name": "Mikkeller Running Club",
    "city": "Paris",
    "address": "Paris",
    "website": "https://mikkeller.dk/",
    "desc": "Running social & bière",
    "lat": 48.858,
    "lng": 2.348,
    "image": "images/clubs/mikkeller.png"
  },
  {
    "type": "club",
    "name": "Hash House Harriers",
    "city": "Paris",
    "address": "Paris",
    "website": "https://www.hashhouseharriers.org/",
    "desc": "Running & trail aventure",
    "lat": 48.859,
    "lng": 2.351,
    "image": "images/clubs/hash_house.png"
  },
  {
    "type": "club",
    "name": "Running Clubs Paris",
    "city": "Paris",
    "address": "Paris",
    "website": "https://www.runningclubsparis.fr/",
    "desc": "Annuaire de clubs de running",
    "lat": 48.855,
    "lng": 2.353,
    "image": "images/clubs/running_clubs_paris.png"
  },
  {
    "type": "club",
    "name": "Bolbec Running Club",
    "city": "Bolbec",
    "address": "Bolbec, Normandie",
    "website": "https://bolbec-running-club.org/",
    "desc": "Running & compétition",
    "lat": 49.583,
    "lng": 0.596,
    "image": "images/clubs/bolbec.png"
  },
  {
    "type": "club",
    "name": "Racing Club de France",
    "city": "Paris",
    "address": "St-Cloud, Paris",
    "website": "https://racingclubdefrance.fr/fr/athletisme",
    "desc": "Running & athlétisme",
    "lat": 48.843,
    "lng": 2.230,
    "image": "images/clubs/racing_club.png"
  },
  {
    "type": "club",
    "name": "Runnek Club",
    "city": "Paris",
    "address": "Paris",
    "website": "https://www.runnek.fr/",
    "desc": "Running & performance",
    "lat": 48.860,
    "lng": 2.355,
    "image": "images/clubs/runnek.png"
  },
  {
    "type": "club",
    "name": "Circle Sportswear",
    "city": "Paris",
    "address": "10e arrondissement, Paris",
    "website": "https://circlesportswear.com/",
    "desc": "Running & lifestyle",
    "lat": 48.871,
    "lng": 2.356,
    "image": "images/clubs/circle_sportswear.png"
  },
  {
    "type": "club",
    "name": "The Coup Run Club",
    "city": "Paris",
    "address": "Paris",
    "website": "https://www.instagram.com/thecoup.runclub/",
    "desc": "Running & convivialité",
    "lat": 48.862,
    "lng": 2.354,
    "image": "images/clubs/coup_run.png"
  },
  {
    "type": "club",
    "name": "Founders Running Club",
    "city": "Paris",
    "address": "Paris",
    "website": "https://www.instagram.com/foundersrunningclub/",
    "desc": "Running & networking",
    "lat": 48.859,
    "lng": 2.352,
    "image": "images/clubs/founders.png"
  },

  {
    "type": "event",
    "name": "Marathon de Paris",
    "date": "2025-04-06",
    "city": "Paris",
    "desc": "Course mythique de 42,195 km à travers la capitale.",
    "lat": 48.8566,
    "lng": 2.3522,
    "image": "images/events/marathon_paris.png"
  },
  {
    "type": "event",
    "name": "Semi-Marathon de Paris",
    "date": "2025-03-09",
    "city": "Paris",
    "desc": "Course de 21,1 km traversant les plus beaux sites parisiens.",
    "lat": 48.857,
    "lng": 2.354,
    "image": "images/events/semi_paris.png"
  },
  {
    "type": "event",
    "name": "Les 20 km de Paris",
    "date": "2025-10-12",
    "city": "Paris",
    "desc": "Course populaire de 20 km offrant une vue imprenable sur la capitale.",
    "lat": 48.858,
    "lng": 2.352,
    "image": "images/events/20km_paris.png"
  },
  {
    "type": "event",
    "name": "Marathon du Médoc",
    "date": "2025-09-13",
    "city": "Bordeaux",
    "desc": "Course festive à travers les vignobles du Médoc.",
    "lat": 44.8378,
    "lng": -0.5792,
    "image": "images/events/medoc.png"
  },
  {
    "type": "event",
    "name": "Ultra-Trail du Mont-Blanc (UTMB)",
    "date": "2025-08-29",
    "city": "Chamonix",
    "desc": "Course de trail emblématique de 174 km autour du Mont-Blanc.",
    "lat": 45.9237,
    "lng": 6.8694,
    "image": "images/events/utmb.png"
  },
  {
    "type": "event",
    "name": "Marathon de Nice-Cannes",
    "date": "2025-11-01",
    "city": "Nice",
    "desc": "Course côtière de 42,195 km entre Nice et Cannes.",
    "lat": 43.7102,
    "lng": 7.2620,
    "image": "images/events/nice_cannes.png"
  },
  {
    "type": "event",
    "name": "Run In Lyon",
    "date": "2025-10-05",
    "city": "Lyon",
    "desc": "Événement sportif avec courses de 5 km, 10 km, semi-marathon et marathon.",
    "lat": 45.7640,
    "lng": 4.8357,
    "image": "images/events/run_in_lyon.png"
  },
  {
    "type": "event",
    "name": "Odysséa Paris",
    "date": "2025-10-04",
    "city": "Paris",
    "desc": "Course solidaire contre le cancer du sein.",
    "lat": 48.856,
    "lng": 2.352,
    "image": "images/events/odyssea.png"
  },
  {
    "type": "shop",
    "name": "Decathlon Paris",
    "city": "Paris",
    "address": "39 Boulevard de la Villette",
    "website": "https://www.decathlon.fr",
    "desc": "Équipement sportif pour tous les budgets.",
    "lat": 48.874,
    "lng": 2.366,
    "image": "images/shops/decathlon_paris.png"
  },
  {
    "type": "shop",
    "name": "Nike Store Paris",
    "city": "Paris",
    "address": "30 Rue du Faubourg Saint-Antoine",
    "website": "https://www.nike.com/fr",
    "desc": "Magasin officiel de la marque Nike.",
    "lat": 48.852,
    "lng": 2.370,
    "image": "images/shops/nike_paris.png"
  },
  {
    "type": "shop",
    "name": "Adidas Store Paris",
    "city": "Paris",
    "address": "35 Rue de la Paix",
    "website": "https://www.adidas.fr",
    "desc": "Magasin officiel de la marque Adidas.",
    "lat": 48.869,
    "lng": 2.331,
    "image": "images/shops/adidas_paris.png"
  },
  {
    "type": "shop",
    "name": "Asics Store Paris",
    "city": "Paris",
    "address": "40 Rue de la République",
    "website": "https://www.asics.com/fr",
    "desc": "Magasin officiel de la marque Asics.",
    "lat": 48.861,
    "lng": 2.344,
    "image": "images/shops/asics_paris.png"
  },
  {
    "type": "shop",
    "name": "Puma Store Paris",
    "city": "Paris",
    "address": "45 Rue du Faubourg Saint-Antoine",
    "website": "https://www.puma.com/fr",
    "desc": "Magasin officiel de la marque Puma.",
    "lat": 48.853,
    "lng": 2.369,
    "image": "images/shops/puma_paris.png"
  },
  {
    "type": "shop",
    "name": "New Balance Store Paris",
    "city": "Paris",
    "address": "50 Boulevard de la Villette",
    "website": "https://www.newbalance.fr",
    "desc": "Magasin officiel de la marque New Balance.",
    "lat": 48.875,
    "lng": 2.360,
    "image": "images/shops/new_balance_paris.png"
  },
  {
    "type": "shop",
    "name": "Salomon Store Chamonix",
    "city": "Chamonix",
    "address": "55 Rue de la République",
    "website": "https://www.salomon.com/fr-fr",
    "desc": "Spécialiste du trail et des sports outdoor.",
    "lat": 45.923,
    "lng": 6.869,
    "image": "images/shops/salomon_chamonix.png"
  },
  {
    "type": "shop",
    "name": "The North Face Store Chamonix",
    "city": "Chamonix",
    "address": "60 Rue du Faubourg Saint-Antoine",
    "website": "https://www.thenorthface.fr",
    "desc": "Équipement pour les sports de montagne.",
    "lat": 45.922,
    "lng": 6.867,
    "image": "images/shops/northface_chamonix.png"
  },
  {
    "type": "shop",
    "name": "Columbia Sportswear Chamonix",
    "city": "Chamonix",
    "address": "65 Boulevard de la Villette",
    "website": "https://www.columbiasportswear.fr",
    "desc": "Vêtements et équipements outdoor.",
    "lat": 45.921,
    "lng": 6.865,
    "image": "images/shops/columbia_chamonix.png"
  },
  {
    "type": "shop",
    "name": "Montura Store Chamonix",
    "city": "Chamonix",
    "address": "70 Rue de la République",
    "website": "https://www.montura.com",
    "desc": "Marque italienne spécialisée en outdoor.",
    "lat": 45.924,
    "lng": 6.868,
    "image": "images/shops/montura_chamonix.png"
  },
  {
    "type": "shop",
    "name": "La Sportiva Store Chamonix",
    "city": "Chamonix",
    "address": "75 Rue du Faubourg Saint-Antoine",
    "website": "https://www.lasportiva.com",
    "desc": "Chaussures et vêtements pour le trail.",
    "lat": 45.925,
    "lng": 6.870,
    "image": "images/shops/lasportiva_chamonix.png"
  },
  {
    "type": "shop",
    "name": "Black Diamond Store Chamonix",
    "city": "Chamonix",
    "address": "80 Boulevard de la Villette",
    "website": "https://www.blackdiamondequipment.com",
    "desc": "Matériel pour l'escalade et le ski.",
    "lat": 45.926,
    "lng": 6.871,
    "image": "images/shops/blackdiamond_chamonix.png"
  },
  {
    "type": "shop",
    "name": "Arc'teryx Store Chamonix",
    "city": "Chamonix",
    "address": "85 Rue de la République",
    "website": "https://www.arcteryx.com",
    "desc": "Vêtements techniques pour l'outdoor.",
    "lat": 45.927,
    "lng": 6.872,
    "image": "images/shops/arcteryx_chamonix.png"
  },
  {
    "type": "shop",
    "name": "Mammut Store Chamonix",
    "city": "Chamonix",
    "address": "90 Rue du Faubourg Saint-Antoine",
    "website": "https://www.mammut.com",
    "desc": "Équipement pour les sports de montagne.",
    "lat": 45.928,
    "lng": 6.873,
    "image": "images/shops/mammut_chamonix.png"
  },
  {
    "type": "shop",
    "name": "Lafuma Store Chamonix",
    "city": "Chamonix",
    "address": "95 Boulevard de la Villette",
    "website": "https://www.lafuma.com",
    "desc": "Marque française d'équipement outdoor.",
    "lat": 45.929,
    "lng": 6.874,
    "image": "images/shops/lafuma_chamonix.png"
  },
  {
    "type": "shop",
    "name": "Go Sport Lyon",
    "city": "Lyon",
    "address": "12 Rue de la République",
    "website": "https://www.go-sport.com",
    "desc": "Équipement sportif généraliste.",
    "lat": 45.764,
    "lng": 4.835,
    "image": "images/shops/gosport_lyon.png"
  },
  {
    "type": "shop",
    "name": "Running Conseil Paris",
    "city": "Paris",
    "address": "12 Rue de la Course",
    "website": "https://www.running-conseil.com",
    "desc": "Magasin spécialisé running.",
    "lat": 48.856,
    "lng": 2.352,
    "image": "images/shops/running_conseil.png"
  },
  {
    "type": "shop",
    "name": "Endurance Shop Lyon",
    "city": "Lyon",
    "address": "45 Avenue du Sport",
    "website": "https://www.enduranceshop.com",
    "desc": "Magasin spécialisé running et trail.",
    "lat": 45.767,
    "lng": 4.834,
    "image": "images/shops/endurance_shop_lyon.png"
  },
  {
    "type": "shop",
    "name": "Trail Running Shop Marseille",
    "city": "Marseille",
    "address": "10 Rue de la République",
    "website": "https://www.trailrunningshop.fr",
    "desc": "Magasin spécialisé trail et course à pied.",
    "lat": 43.296,
    "lng": 5.369,
    "image": "images/shops/trail_shop_marseille.png"
  }
]